[
  {
    "unidade": "SEDE DO PARQUE DOS PODERES",
    "municipio": "Campo Grande",
    "latitude": -20.45364,
    "longitude": -54.553395
  },
  {
    "unidade": "DEFENSORIA DE CAMPO GRANDE - 2 INSTANCIA - ESCOLA SUPERIOR DA DEFENSORIA PÚBLICA",
    "municipio": "Campo Grande",
    "latitude": -20.463351,
    "longitude": -54.577672
  },
  {
    "unidade": "DEFENSORIA DE CAMPO GRANDE - AFONSO PENA - NUDEM/NUDECA",
    "municipio": "Campo Grande",
    "latitude": -20.461482,
    "longitude": -54.599825
  },
  {
    "unidade": "DEFENSORIA DE CAMPO GRANDE - BARÃO DE MELGAÇO - NAS/NUSPEN",
    "municipio": "Campo Grande",
    "latitude": -20.467438,
    "longitude": -54.611996
  },
  {
    "unidade": "DEFENSORIA DE CAMPO GRANDE - BELMAR FIDALGO - NUFAM",
    "municipio": "Campo Grande",
    "latitude": -20.458767,
    "longitude": -54.606768
  },
  {
    "unidade": "DEFENSORIA DE CAMPO GRANDE - CENTRO - NUCCON/NUFAMD",
    "municipio": "Campo Grande",
    "latitude": -20.456974,
    "longitude": -54.614095
  },
  {
    "unidade": "DEFENSORIA DE CAMPO GRANDE - FÓRUM - NUCRIM",
    "municipio": "Campo Grande",
    "latitude": -20.459835,
    "longitude": -54.604634
  },
  {
    "unidade": "DEFENSORIA DE CAMPO GRANDE - SEMI ABERTO FEMININO",
    "municipio": "Campo Grande",
    "latitude": -20.500472,
    "longitude": -54.607830
  },
  {
    "unidade": "DEFENSORIA DE ÁGUA CLARA - FÓRUM",
    "municipio": "Água Clara",
    "latitude": -20.436909,
    "longitude": -52.881941
  },
  {
    "unidade": "DEFENSORIA DE AMAMBAI - CENTRO",
    "municipio": "Amambai",
    "latitude": -23.103209,
    "longitude": -55.229681
  },
  {
    "unidade": "DEFENSORIA DE ANASTÁCIO - FÓRUM",
    "municipio": "Anastácio",
    "latitude": -20.490401,
    "longitude": -55.807976
  },
  {
    "unidade": "DEFENSORIA DE ANAURILÂNDIA - FÓRUM",
    "municipio": "Anaurilândia",
    "latitude": -22.183246,
    "longitude": -52.720506
  },
  {
    "unidade": "DEFENSORIA DE ANGÉLICA - FÓRUM",
    "municipio": "Angélica",
    "latitude": -22.160798,
    "longitude": -53.77592
  },
  {
    "unidade": "DEFENSORIA DE APARECIDA DO TABOADO - CENTRO",
    "municipio": "Aparecida do Taboado",
    "latitude": -20.086782,
    "longitude": -51.099564
  },
  {
    "unidade": "DEFENSORIA DE AQUIDAUANA - ALTO",
    "municipio": "Aquidauana",
    "latitude": -20.473274,
    "longitude": -55.791964
  },
  {
    "unidade": "DEFENSORIA DE BANDEIRANTES - FÓRUM",
    "municipio": "Bandeirantes",
    "latitude": -19.91875,
    "longitude": -54.366215
  },
  {
    "unidade": "DEFENSORIA DE BATAGUASSU - CENTRO",
    "municipio": "Bataguassu",
    "latitude": -21.717052,
    "longitude": -52.427932
  },
  {
    "unidade": "DEFENSORIA DE BATAYPORÃ - FÓRUM",
    "municipio": "Batayporã",
    "latitude": -22.297954,
    "longitude": -53.276622
  },
  {
    "unidade": "DEFENSORIA DE BELA VISTA - FÓRUM",
    "municipio": "Bela Vista",
    "latitude": -22.105466,
    "longitude": -56.534344
  },
  {
    "unidade": "DEFENSORIA DE BONITO - FÓRUM",
    "municipio": "Bonito",
    "latitude": -21.12417,
    "longitude": -56.500378
  },
  {
    "unidade": "DEFENSORIA DE BRASILÂNDIA - FÓRUM",
    "municipio": "Brasilândia",
    "latitude": -21.248875,
    "longitude": -52.03362
  },
  {
    "unidade": "DEFENSORIA DE CAARAPÓ - FÓRUM",
    "municipio": "Caarapó",
    "latitude": -22.62783,
    "longitude": -54.831609
  },
  {
    "unidade": "DEFENSORIA DE CAMAPUÃ",
    "municipio": "Camapuã",
    "latitude": -19.53478,
    "longitude": -54.038306
  },
  {
    "unidade": "DEFENSORIA DE CASSILÂNDIA - CENTRO",
    "municipio": "Cassilândia",
    "latitude": -19.115728,
    "longitude": -51.73275
  },
  {
    "unidade": "DEFENSORIA DE CHAPADÃO DO SUL - FÓRUM",
    "municipio": "Chapadão do Sul",
    "latitude": -18.791602,
    "longitude": -52.617918
  },
  {
    "unidade": "DEFENSORIA DE CORONEL SAPUCAIA - FÓRUM",
    "municipio": "Coronel Sapucaia",
    "latitude": -23.275973,
    "longitude": -55.534732
  },
  {
    "unidade": "DEFENSORIA DE CORUMBÁ - CENTRO",
    "municipio": "Corumbá",
    "latitude": -19.018357,
    "longitude": -57.655178
  },
  {
    "unidade": "DEFENSORIA DE COSTA RICA - FÓRUM",
    "municipio": "Costa Rica",
    "latitude": -18.542927,
    "longitude": -53.124038
  },
  {
    "unidade": "DEFENSORIA DE COXIM",
    "municipio": "Coxim",
    "latitude": -18.503662,
    "longitude": -54.756849
  },
  {
    "unidade": "DEFENSORIA DE DEODÁPOLIS - FÓRUM",
    "municipio": "Deodápolis",
    "latitude": -22.272082,
    "longitude": -54.162999
  },
  {
    "unidade": "DEFENSORIA DE DOIS IRMÃOS DO BURITI - FÓRUM",
    "municipio": "Dois Irmãos do Buriti",
    "latitude": -20.685868,
    "longitude": -55.278625
  },
  {
    "unidade": "DEFENSORIA DE DOURADOS - CIVEL I",
    "municipio": "Dourados",
    "latitude": -22.230996,
    "longitude": -54.81176
  },
  {
    "unidade": "DEFENSORIA DE DOURADOS - CÍVEL II",
    "municipio": "Dourados",
    "latitude": -22.22151,
    "longitude": -54.817974
  },
  {
    "unidade": "DEFENSORIA DE DOURADOS - CRIMINAL",
    "municipio": "Dourados",
    "latitude": -22.221155,
    "longitude": -54.81546
  },
  {
    "unidade": "DEFENSORIA DE ELDORADO - FÓRUM",
    "municipio": "Eldorado",
    "latitude": -23.784973,
    "longitude": -54.29008
  },
  {
    "unidade": "DEFENSORIA DE FÁTIMA DO SUL - FÓRUM",
    "municipio": "Fátima do Sul",
    "latitude": -22.38879,
    "longitude": -54.515625
  },
  {
    "unidade": "DEFENSORIA DE GLÓRIA DE DOURADOS - FÓRUM",
    "municipio": "Glória de Dourados",
    "latitude": -22.407964,
    "longitude": -54.233659
  },
  {
    "unidade": "DEFENSORIA DE IGUATEMI - FÓRUM",
    "municipio": "Iguatemi",
    "latitude": -23.674572,
    "longitude": -54.563566
  },
  {
    "unidade": "DEFENSORIA DE INOCÊNCIA - FÓRUM",
    "municipio": "Inocência",
    "latitude": -19.735484,
    "longitude": -51.927449
  },
  {
    "unidade": "DEFENSORIA DE ITAPORÃ - FÓRUM",
    "municipio": "Itaporã",
    "latitude": -22.088754,
    "longitude": -54.78938
  },
  {
    "unidade": "DEFENSORIA DE ITAQUIRAÍ - FÓRUM",
    "municipio": "Itaquiraí",
    "latitude": -23.47453,
    "longitude": -54.174903
  },
  {
    "unidade": "DEFENSORIA DE IVINHEMA - CENTRO",
    "municipio": "Ivinhema",
    "latitude": -22.305048,
    "longitude": -53.828883
  },
  {
    "unidade": "DEFENSORIA DE JARDIM - FÓRUM",
    "municipio": "Jardim",
    "latitude": -21.481872,
    "longitude": -56.148744
  },
  {
    "unidade": "DEFENSORIA DE MARACAJU - CENTRO",
    "municipio": "Maracaju",
    "latitude": -21.62144,
    "longitude": -55.154837
  },
  {
    "unidade": "DEFENSORIA DE MIRANDA - FÓRUM",
    "municipio": "Miranda",
    "latitude": -20.23851,
    "longitude": -56.377021
  },
  {
    "unidade": "DEFENSORIA DE MUNDO NOVO - FÓRUM",
    "municipio": "Mundo Novo",
    "latitude": -23.938172,
    "longitude": -54.277426
  },
  {
    "unidade": "DEFENSORIA DE NAVIRAÍ - FÓRUM",
    "municipio": "Naviraí",
    "latitude": -23.059902,
    "longitude": -54.200279
  },
  {
    "unidade": "DEFENSORIA DE NIOAQUE - FÓRUM",
    "municipio": "Nioaque",
    "latitude": -21.157782,
    "longitude": -55.829492
  },
  {
    "unidade": "DEFENSORIA DE NOVA ALVORADA DO SUL - FÓRUM",
    "municipio": "Nova Alvorada do Sul",
    "latitude": -21.463191,
    "longitude": -54.380023
  },
  {
    "unidade": "DEFENSORIA DE NOVA ANDRADINA - CENTRO",
    "municipio": "Nova Andradina",
    "latitude": -22.247948,
    "longitude": -53.353268
  },
  {
    "unidade": "DEFENSORIA DE PARANAÍBA - YPÊ BRANCO",
    "municipio": "Paranaíba",
    "latitude": -19.681461,
    "longitude": -51.198481
  },
  {
    "unidade": "DEFENSORIA DE PEDRO GOMES - FÓRUM",
    "municipio": "Pedro Gomes",
    "latitude": -18.099109,
    "longitude": -54.55709
  },
  {
    "unidade": "DEFENSORIA DE PONTA PORÃ - VILA LUIZ CORVO",
    "municipio": "Ponta Porã",
    "latitude": -22.527328,
    "longitude": -55.715922
  },
  {
    "unidade": "DEFENSORIA DE PORTO MURTINHO - FÓRUM",
    "municipio": "Porto Murtinho",
    "latitude": -21.698405,
    "longitude": -57.883973
  },
  {
    "unidade": "DEFENSORIA DE RIBAS DO RIO PARDO - FÓRUM",
    "municipio": "Ribas do Rio Pardo",
    "latitude": -20.447403,
    "longitude": -53.755519
  },
  {
    "unidade": "DEFENSORIA DE RIO BRILHANTE - FÓRUM",
    "municipio": "Rio Brilhante",
    "latitude": -21.807844,
    "longitude": -54.547926
  },
  {
    "unidade": "DEFENSORIA DE RIO NEGRO - FÓRUM",
    "municipio": "Rio Negro",
    "latitude": -19.450622,
    "longitude": -54.991573
  },
  {
    "unidade": "DEFENSORIA DE RIO VERDE DE MATO GROSSO - FÓRUM",
    "municipio": "Rio Verde de Mato Grosso",
    "latitude": -18.920581,
    "longitude": -54.841913
  },
  {
    "unidade": "DEFENSORIA DE SÃO GABRIEL DO OESTE - FÓRUM",
    "municipio": "São Gabriel do Oeste",
    "latitude": -19.391845,
    "longitude": -54.576766
  },
  {
    "unidade": "DEFENSORIA DE SETE QUEDAS - FÓRUM",
    "municipio": "Sete Quedas",
    "latitude": -23.97862,
    "longitude": -55.040929
  },
  {
    "unidade": "DEFENSORIA DE SIDROLÂNDIA - CENTRO",
    "municipio": "Sidrolândia",
    "latitude": -20.928235,
    "longitude": -54.964
  },
  {
    "unidade": "DEFENSORIA DE SONORA - FÓRUM",
    "municipio": "Sonora",
    "latitude": -17.587994,
    "longitude": -54.752347
  },
  {
    "unidade": "DEFENSORIA DE TERENOS - FÓRUM",
    "municipio": "Terenos",
    "latitude": -20.439358,
    "longitude": -54.870336
  },
  {
    "unidade": "DEFENSORIA DE TRÊS LAGOAS - PRAÇA DA JUSTIÇA",
    "municipio": "Três Lagoas",
    "latitude": -20.78729,
    "longitude": -51.700306
  },
  {
    "unidade": "SEINFRA DA DEFENSORIA",
    "municipio": "Campo Grande",
    "latitude": -20.440634,
    "longitude": -54.549688
  },
  {
    "unidade": "DEFENSORIA DE CAMPO GRANDE - PRÁTICO GUAICURUS",
    "municipio": "Campo Grande",
    "latitude": -20.52647,
    "longitude": -54.598511
  },
  {
    "unidade": "DEFENSORIA DE CAMPO GRANDE - PRÁTICO GENERAL OSÓRIO",
    "municipio": "Campo Grande",
    "latitude": -20.433478,
    "longitude": -54.594752
  },
  {
    "unidade": "DEFENSORIA DE CAMPO GRANDE - FÁCIL AERO RANCHO",
    "municipio": "Campo Grande",
    "latitude": -20.515201,
    "longitude": -54.655642
  },
  {
    "unidade": "DEFENSORIA DE CAMPO GRANDE - CASA DA MULHER BRASILEIRA",
    "municipio": "Campo Grande",
    "latitude": -20.456232,
    "longitude": -54.663453
  },
  {
    "unidade": "DEFENSORIA DE DOURADOS - POUPATEMPO",
    "municipio": "Dourados",
    "latitude": -22.248507,
    "longitude": -54.807839
  }
]